[{"id": 1, "name": "Ablitas", "lat": 41.999392, "long": 1.642143, "elv": 335, "abbr": "Ablitas", "state": "Navarra", "icao": 1}, {"id": 2, "name": "Adios", "lat": 42.687564, "long": 1.746005, "elv": 446, "abbr": "Adios", "state": "Navarra", "icao": 2}, {"id": 3, "name": "Aguilar de Codes", "lat": 42.613699, "long": 2.394022, "elv": 705, "abbr": "Aguilar de Codes", "state": "Navarra", "icao": 3}, {"id": 4, "name": "Aibar", "lat": 42.559415, "long": 1.315107, "elv": 425, "abbr": "Aibar", "state": "Navarra", "icao": 4}, {"id": 5, "name": "Ancin", "lat": 42.657057, "long": 2.171715, "elv": 469, "abbr": "Ancin", "state": "Navarra", "icao": 5}, {"id": 6, "name": "Aoiz", "lat": 42.791507, "long": 1.368923, "elv": 526, "abbr": "Aoiz", "state": "Navarra", "icao": 6}, {"id": 7, "name": "Aralar", "lat": 42.953635, "long": 1.96307, "elv": 1268, "abbr": "Aralar", "state": "Navarra", "icao": 7}, {"id": 8, "name": "Arangoiti", "lat": 42.645875, "long": 1.194044, "elv": 1304, "abbr": "Arangoiti", "state": "Navarra", "icao": 8}, {"id": 9, "name": "Arazuri", "lat": 42.811474, "long": 1.724844, "elv": 390, "abbr": "Arazuri", "state": "Navarra", "icao": 9}, {"id": 10, "name": "Artajona", "lat": 42.584652, "long": 1.789562, "elv": 363, "abbr": "Artajona", "state": "Navarra", "icao": 10}, {"id": 11, "name": "Bardenas(barranco)", "lat": 42.26543, "long": 1.654409, "elv": 300, "abbr": "Bardenas(barranco)", "state": "Navarra", "icao": 11}, {"id": 12, "name": "Bardenas(El plano)", "lat": 42.298199, "long": 1.516149, "elv": 429, "abbr": "Bardenas(El plano)", "state": "Navarra", "icao": 12}, {"id": 13, "name": "Bardenas (Loma negra)", "lat": 42.070811, "long": 1.375829, "elv": 587, "abbr": "Bardenas (Loma negra)", "state": "Navarra", "icao": 13}, {"id": 14, "name": "Bargota", "lat": 42.48434, "long": 2.294017, "elv": 387, "abbr": "Bargota", "state": "Navarra", "icao": 14}, {"id": 15, "name": "Beortegi", "lat": 42.798829, "long": 1.433526, "elv": 582, "abbr": "Beortegi", "state": "Navarra", "icao": 15}, {"id": 16, "name": "Bera (larratega\u00f1a) ", "lat": 43.268374, "long": 1.651375, "elv": 277, "abbr": "Bera (larratega\u00f1a) ", "state": "Navarra", "icao": 16}, {"id": 17, "name": "Cadreita", "lat": 42.208906, "long": 1.717048, "elv": 268, "abbr": "Cadreita", "state": "Navarra", "icao": 17}, {"id": 18, "name": "Carcastillo (la oliva)", "lat": 42.372386, "long": 1.462692, "elv": 341, "abbr": "Carcastillo (la oliva)", "state": "Navarra", "icao": 18}, {"id": 19, "name": "Carrascal", "lat": 42.683361, "long": 1.660249, "elv": 551, "abbr": "Carrascal", "state": "Navarra", "icao": 19}, {"id": 20, "name": "Cascante", "lat": 42.037337, "long": 1.721434, "elv": 331, "abbr": "Cascante", "state": "Navarra", "icao": 20}, {"id": 21, "name": "Corella", "lat": 42.116728, "long": 1.838574, "elv": 422, "abbr": "Corella", "state": "Navarra", "icao": 21}, {"id": 22, "name": "Donetzebe - Santesteban", "lat": 43.131741, "long": 1.65987, "elv": 123, "abbr": "Donetzebe - Santesteban", "state": "Navarra", "icao": 22}, {"id": 23, "name": "El Perdon", "lat": 42.733253, "long": 1.708416, "elv": 980, "abbr": "El Perdon", "state": "Navarra", "icao": 23}, {"id": 24, "name": "Eltzaburu", "lat": 43.008248, "long": 1.707192, "elv": 605, "abbr": "Eltzaburu", "state": "Navarra", "icao": 24}, {"id": 25, "name": "Erremendia (salazar)", "lat": 42.87888, "long": 1.18384, "elv": 1056, "abbr": "Erremendia (salazar)", "state": "Navarra", "icao": 25}, {"id": 26, "name": "Estella", "lat": 42.675671, "long": 2.026228, "elv": 512, "abbr": "Estella", "state": "Navarra", "icao": 26}, {"id": 27, "name": "Etxarri-aranatz", "lat": 42.90954, "long": 2.058379, "elv": 505, "abbr": "Etxarri-aranatz", "state": "Navarra", "icao": 27}, {"id": 28, "name": "Falces", "lat": 42.409883, "long": 1.791284, "elv": 295, "abbr": "Falces", "state": "Navarra", "icao": 28}, {"id": 29, "name": "Fitero", "lat": 42.049036, "long": 1.840156, "elv": 441, "abbr": "Fitero", "state": "Navarra", "icao": 29}, {"id": 30, "name": "Funes", "lat": 42.278059, "long": 1.804331, "elv": 378, "abbr": "Funes", "state": "Navarra", "icao": 30}, {"id": 31, "name": "Getadar", "lat": 42.617927, "long": 1.471557, "elv": 757, "abbr": "Getadar", "state": "Navarra", "icao": 31}, {"id": 32, "name": "Gorramendi", "lat": 43.211122, "long": 1.444849, "elv": 1010, "abbr": "Gorramendi", "state": "Navarra", "icao": 32}, {"id": 33, "name": "Lerin", "lat": 42.504736, "long": 1.975026, "elv": 358, "abbr": "Lerin", "state": "Navarra", "icao": 33}, {"id": 34, "name": "Los arcos", "lat": 42.542294, "long": 2.181962, "elv": 417, "abbr": "Los arcos", "state": "Navarra", "icao": 34}, {"id": 35, "name": "Lumbier", "lat": 42.666422, "long": 1.27447, "elv": 484, "abbr": "Lumbier", "state": "Navarra", "icao": 35}, {"id": 36, "name": "Miranda de arga", "lat": 42.512356, "long": 1.807535, "elv": 344, "abbr": "Miranda de arga", "state": "Navarra", "icao": 36}, {"id": 37, "name": "Murillo El Fruto", "lat": 42.386086, "long": 1.485912, "elv": 350, "abbr": "Murillo El Fruto", "state": "Navarra", "icao": 37}, {"id": 38, "name": "Olite", "lat": 42.424894, "long": 1.661313, "elv": 396, "abbr": "Olite", "state": "Navarra", "icao": 38}, {"id": 39, "name": "Oskotz", "lat": 42.956086, "long": 1.756143, "elv": 567, "abbr": "Oskotz", "state": "Navarra", "icao": 39}, {"id": 40, "name": "Pamplona (etsia)", "lat": 42.793358, "long": 1.629026, "elv": 434, "abbr": "Pamplona (etsia)", "state": "Navarra", "icao": 40}, {"id": 41, "name": "Pamplona", "lat": 42.818911, "long": 1.637123, "elv": 421, "abbr": "Pamplona", "state": "Navarra", "icao": 41}, {"id": 42, "name": "San Adrian", "lat": 42.35977, "long": 1.898978, "elv": 375, "abbr": "San Adrian", "state": "Navarra", "icao": 42}, {"id": 43, "name": "San Martin de Unx", "lat": 42.514039, "long": 1.610591, "elv": 446, "abbr": "San Martin de Unx", "state": "Navarra", "icao": 43}, {"id": 44, "name": "Sartaguda", "lat": 42.363065, "long": 2.049959, "elv": 309, "abbr": "Sartaguda", "state": "Navarra", "icao": 44}, {"id": 45, "name": "Sartaguda (gn)", "lat": 42.366278, "long": 2.050785, "elv": 308, "abbr": "Sartaguda (gn)", "state": "Navarra", "icao": 45}, {"id": 46, "name": "Sesma", "lat": 42.476451, "long": 2.124036, "elv": 444, "abbr": "Sesma", "state": "Navarra", "icao": 46}, {"id": 47, "name": "Tafalla", "lat": 42.521983, "long": 1.684055, "elv": 427, "abbr": "Tafalla", "state": "Navarra", "icao": 47}, {"id": 48, "name": "Traibuenas", "lat": 42.362608, "long": 1.6141, "elv": 311, "abbr": "Traibuenas", "state": "Navarra", "icao": 48}, {"id": 49, "name": "Trinidad de Iturgoyen", "lat": 42.813249, "long": 1.981316, "elv": 1203, "abbr": "Trinidad de Iturgoyen", "state": "Navarra", "icao": 49}, {"id": 50, "name": "Tudela (Montes cierzo)", "lat": 42.133189, "long": 1.652213, "elv": 309, "abbr": "Tudela (Montes cierzo)", "state": "Navarra", "icao": 50}, {"id": 51, "name": "Tudela (Valdetellas)", "lat": 42.068622, "long": 1.568076, "elv": 258, "abbr": "Tudela (Valdetellas)", "state": "Navarra", "icao": 51}, {"id": 52, "name": "Ujue", "lat": 42.512744, "long": 1.509737, "elv": 777, "abbr": "Ujue", "state": "Navarra", "icao": 52}, {"id": 53, "name": "Urbasa", "lat": 42.85312, "long": 2.174735, "elv": 892, "abbr": "Urbasa", "state": "Navarra", "icao": 53}, {"id": 54, "name": "Villanueva de Yerri", "lat": 42.736335, "long": 1.949261, "elv": 527, "abbr": "Villanueva de Yerri", "state": "Navarra", "icao": 54}, {"id": 55, "name": "Yesa", "lat": 42.618485, "long": 1.190299, "elv": 505, "abbr": "Yesa", "state": "Navarra", "icao": 55}]